Id,Name,Address,City,Stars,Review Count,Categories,Latitude,Longitude,Price
1,Avari Towers Karachi,"242-244 Fatima Jinnah Rd, Karachi Cantonment, Sindh 75530",Karachi,4.4,"8,315",Hotel,24.8527,67.0323,"13,671"
2,"19-1-B, Block 6, P.E.C.H.S adj. Bank Al Habib",Country Inn,Karachi,3.9,938,Hotel,24.8606,67.0679,"9,605"
3,Zifan Hotel and Suites,"29B, Off Shahrah-e-Faisal Rd, Block-6 Block 6 PECHS, Sindh 75400",Karachi,4.3,546,Hotel,24.8656,67.0749,"8,475"
4,Nadeem Hotel,"Safoorah goth main University Road, Karachi",Karachi,4.3,546,Hotel,24.9386979,67.1448364,"4,475"
5,Adnan Duplex Hotel,"Mosamiyat main University Road, Karachi",Karachi,4.3,546,Hotel,24.9292592,67.0999557,"4,475"
